,City,Lat,Lng,Max Temp,Humidity,Cloudiness,Wind Speed,Country,Date
0,oranjestad,12.52,-70.03,28.0,78.0,20.0,8.7,AW,1595898569
1,norman wells,65.28,-126.83,20.0,52.0,75.0,5.1,CA,1595898569
2,abu kamal,34.45,40.92,34.78,12.0,0.0,3.64,SY,1595898569
3,ushuaia,-54.8,-68.3,1.0,80.0,40.0,11.8,AR,1595898524
4,coihaique,-45.58,-72.07,3.0,74.0,20.0,1.5,CL,1595898569
5,lagoa,39.05,-27.98,22.85,88.0,0.0,2.31,PT,1595898570
6,zhezkazgan,47.8,67.71,20.29,50.0,35.0,2.2,KZ,1595898570
7,albany,42.6,-73.97,32.78,70.0,5.0,2.4,US,1595898393
8,ukiah,39.15,-123.21,37.0,14.0,1.0,4.6,US,1595898570
9,rikitea,-23.12,-134.97,22.46,81.0,84.0,6.35,PF,1595898570
10,hermanus,-34.42,19.23,6.11,92.0,0.0,2.59,ZA,1595898571
12,victoria,22.29,114.16,30.56,70.0,100.0,3.58,HK,1595898564
13,hobart,-42.88,147.33,10.56,93.0,75.0,2.6,AU,1595898406
15,new norfolk,-42.78,147.06,9.44,92.0,49.0,1.32,AU,1595898451
16,port alfred,-33.59,26.89,12.47,74.0,0.0,3.8,ZA,1595898572
17,kodiak,57.79,-152.41,17.0,67.0,75.0,2.6,US,1595898573
18,kavaratti,10.57,72.64,27.74,82.0,100.0,6.1,IN,1595898375
19,cape town,-33.93,18.42,13.89,93.0,0.0,1.5,ZA,1595898573
20,carnarvon,-24.87,113.63,15.0,72.0,0.0,5.7,AU,1595898362
21,jamestown,42.1,-79.24,23.89,94.0,40.0,4.6,US,1595898385
22,petropavlovsk-kamchatskiy,53.05,158.65,24.0,53.0,69.0,2.0,RU,1595898574
23,busselton,-33.65,115.33,12.22,98.0,96.0,4.37,AU,1595898446
25,union,40.63,-74.27,32.22,43.0,1.0,4.93,US,1595898574
26,arraial do cabo,-22.97,-42.03,22.07,81.0,0.0,10.85,BR,1595898575
27,esperance,-33.87,121.9,12.0,93.0,46.0,5.1,AU,1595898575
28,saint-philippe,-21.36,55.77,20.0,88.0,79.0,1.5,RE,1595898575
29,ola,59.58,151.28,15.6,82.0,89.0,2.32,RU,1595898575
30,puerto ayora,-0.74,-90.35,18.89,97.0,75.0,0.45,EC,1595898566
31,mataura,-46.19,168.86,7.78,84.0,100.0,0.45,NZ,1595898479
32,khandbari,27.37,87.2,24.04,74.0,100.0,0.33,NP,1595898576
33,agua prieta,31.3,-109.57,25.0,60.0,100.0,2.24,MX,1595898576
34,vaini,-21.2,-175.2,23.0,88.0,75.0,6.2,TO,1595898576
35,klaksvik,62.23,-6.59,8.0,93.0,100.0,6.2,FO,1595898577
36,provideniya,64.38,-173.3,11.0,93.0,90.0,3.0,RU,1595898577
37,navalcarnero,40.29,-4.01,30.0,27.0,0.0,5.1,ES,1595898577
38,constitucion,-35.33,-72.42,7.68,61.0,0.0,4.6,CL,1595898577
39,qaanaaq,77.48,-69.36,6.54,62.0,0.0,0.88,GL,1595898452
40,bredasdorp,-34.53,20.04,3.0,93.0,0.0,0.63,ZA,1595898578
41,saint anthony,45.02,-93.22,27.0,42.0,1.0,5.7,US,1595898525
42,tasiilaq,65.61,-37.64,6.0,87.0,65.0,1.5,GL,1595898578
43,bluff,-46.6,168.33,7.78,84.0,100.0,0.45,NZ,1595898578
44,bhadrachalam,17.67,80.88,26.67,85.0,100.0,0.38,IN,1595898579
45,santa isabel do rio negro,-0.41,-65.02,23.77,91.0,30.0,0.5,BR,1595898579
46,port lincoln,-34.73,135.87,11.78,66.0,80.0,4.45,AU,1595898491
47,morlaix,48.58,-4.0,14.44,87.0,75.0,3.1,FR,1595898579
48,isiro,2.77,27.62,18.77,97.0,100.0,0.67,CD,1595898580
49,bethel,41.37,-73.41,28.33,65.0,1.0,3.68,US,1595898447
50,luena,-11.78,19.92,9.78,57.0,0.0,2.0,AO,1595898580
51,tuktoyaktuk,69.45,-133.04,18.0,68.0,75.0,7.7,CA,1595898580
52,severo-kurilsk,50.68,156.12,12.83,83.0,66.0,7.63,RU,1595898580
53,salalah,17.02,54.09,26.0,94.0,40.0,2.6,OM,1595898581
54,ribeira grande,38.52,-28.7,23.06,89.0,6.0,1.95,PT,1595898581
55,hasaki,35.73,140.83,29.0,79.0,75.0,5.7,JP,1595898480
56,gigante,2.39,-75.55,21.37,64.0,2.0,1.49,CO,1595898581
57,gweru,-19.45,29.82,6.76,87.0,0.0,4.42,ZW,1595898581
58,moron,-34.65,-58.62,8.33,50.0,100.0,3.6,AR,1595898458
59,rudnaya pristan,44.36,135.81,21.14,72.0,46.0,2.09,RU,1595898582
60,fairbanks,64.84,-147.72,15.0,82.0,90.0,3.1,US,1595898354
61,yellowknife,62.46,-114.35,17.0,93.0,75.0,5.1,CA,1595898474
62,lavrentiya,65.58,-171.0,9.39,80.0,88.0,6.68,RU,1595898582
63,stykkisholmur,65.08,-22.73,8.13,83.0,37.0,2.63,IS,1595898583
64,sayyan,15.17,44.32,14.93,81.0,100.0,3.0,YE,1595898583
65,kapaa,22.08,-159.32,29.0,70.0,20.0,10.3,US,1595898463
66,alekseyevsk,57.84,108.35,20.68,70.0,100.0,0.72,RU,1595898584
67,suzhou,31.31,120.62,28.89,68.0,100.0,1.68,CN,1595898584
68,port keats,-14.25,129.55,25.45,22.0,71.0,6.76,AU,1595898584
69,flinders,-34.58,150.86,16.67,88.0,98.0,3.13,AU,1595898499
70,hilo,19.73,-155.09,28.0,61.0,90.0,5.1,US,1595898584
71,namibe,-15.2,12.15,18.51,71.0,0.0,1.64,AO,1595898585
72,barrow,71.29,-156.79,4.0,80.0,90.0,11.8,US,1595898585
73,ilulissat,69.22,-51.1,6.0,87.0,97.0,1.5,GL,1595898585
74,ekibastuz,51.67,75.37,17.85,68.0,100.0,4.98,KZ,1595898502
75,lompoc,34.64,-120.46,19.44,68.0,0.0,7.2,US,1595898448
76,kingisepp,59.37,28.61,14.03,82.0,95.0,2.13,RU,1595898586
77,khatanga,71.97,102.5,11.31,58.0,0.0,2.55,RU,1595898586
78,charters towers,-20.1,146.27,18.83,31.0,0.0,6.3,AU,1595898586
79,nhulunbuy,-12.23,136.77,27.0,51.0,100.0,8.2,AU,1595898587
80,butaritari,3.07,172.79,28.46,79.0,100.0,4.94,KI,1595898587
81,mahajanga,-15.72,46.32,21.87,72.0,100.0,2.08,MG,1595898587
82,camopi,3.17,-52.32,23.17,96.0,100.0,1.01,GF,1595898587
83,west wendover,40.74,-114.07,34.0,16.0,1.0,3.6,US,1595898367
84,kiama,-34.68,150.87,16.67,92.0,99.0,3.58,AU,1595898588
85,hithadhoo,-0.6,73.08,27.91,79.0,100.0,5.56,MV,1595898588
86,vangaindrano,-23.35,47.6,15.53,85.0,2.0,2.15,MG,1595898588
87,mandalgovi,45.76,106.27,18.78,48.0,0.0,5.63,MN,1595898483
88,kruisfontein,-34.0,24.73,9.67,60.0,0.0,2.87,ZA,1595898589
89,georgetown,5.41,100.34,28.0,94.0,20.0,1.5,MY,1595898589
90,kieta,-6.22,155.63,29.48,64.0,63.0,1.39,PG,1595898589
91,belyy yar,53.6,91.39,16.0,87.0,100.0,2.0,RU,1595898589
92,thunder bay,48.4,-89.32,21.11,60.0,40.0,4.6,CA,1595898456
93,punta arenas,-53.15,-70.92,2.0,47.0,35.0,6.7,CL,1595898312
94,payo,-3.75,103.64,23.75,68.0,96.0,0.64,ID,1595898590
95,buala,-8.14,159.59,29.43,73.0,41.0,3.95,SB,1595898590
96,muncie,40.19,-85.39,23.0,88.0,40.0,3.1,US,1595898591
97,elko,41.0,-115.5,29.0,18.0,1.0,2.1,US,1595898591
98,east london,-33.02,27.91,13.16,73.0,0.0,3.78,ZA,1595898304
99,mackay,-21.15,149.2,21.0,40.0,0.0,5.7,AU,1595898592
101,necochea,-38.55,-58.74,5.0,93.0,98.0,2.24,AR,1595898593
102,soyo,-6.13,12.37,22.54,84.0,69.0,2.95,AO,1595898593
103,kargasok,59.06,80.86,13.15,71.0,89.0,1.78,RU,1595898593
104,krasnyye chetai,55.69,46.14,13.42,89.0,0.0,0.73,RU,1595898594
105,nikolskoye,59.7,30.79,15.0,82.0,19.0,1.0,RU,1595898594
106,axim,4.87,-2.24,23.47,87.0,86.0,4.17,GH,1595898594
107,atherton,53.52,-2.49,13.89,80.0,86.0,3.58,GB,1595898595
108,port elizabeth,-33.92,25.57,9.0,87.0,0.0,1.0,ZA,1595898595
109,pareora,-44.49,171.21,10.56,97.0,100.0,0.06,NZ,1595898595
110,sulangan,11.14,123.72,28.34,76.0,100.0,6.04,PH,1595898595
111,changji,44.02,87.32,19.0,77.0,18.0,3.0,CN,1595898596
112,beringovskiy,63.05,179.32,18.76,58.0,0.0,3.52,RU,1595898596
113,roebourne,-20.78,117.13,21.01,26.0,0.0,7.08,AU,1595898596
114,grindavik,63.84,-22.43,8.0,87.0,75.0,5.7,IS,1595898492
115,shimoda,34.67,138.95,27.0,94.0,75.0,7.2,JP,1595898597
116,balabac,7.99,117.06,29.49,68.0,53.0,1.49,PH,1595898597
117,corning,42.14,-77.05,27.0,74.0,1.0,2.6,US,1595898597
118,viedma,-40.81,-63.0,4.87,69.0,74.0,3.8,AR,1595898598
119,chuy,-33.7,-53.46,9.02,73.0,100.0,3.22,UY,1595898598
120,grand gaube,-20.01,57.66,19.44,81.0,67.0,1.79,MU,1595898598
121,mamontovo,52.71,81.62,16.3,73.0,93.0,2.77,RU,1595898599
122,la sarre,48.8,-79.2,20.99,63.0,0.0,3.5,CA,1595898542
123,mayo,38.89,-76.51,31.11,55.0,1.0,2.6,US,1595898599
124,goldap,54.31,22.3,13.81,94.0,100.0,0.32,PL,1595898404
125,sakakah,29.97,40.21,33.0,17.0,0.0,3.6,SA,1595898600
126,itapora,-22.08,-54.79,21.45,46.0,0.0,1.25,BR,1595898600
127,shahrud,36.42,54.98,22.09,49.0,0.0,2.05,IR,1595898600
128,upernavik,72.79,-56.15,6.89,86.0,85.0,2.49,GL,1595898601
129,marzuq,14.4,46.47,22.82,72.0,100.0,1.22,YE,1595898601
130,padang,-0.95,100.35,26.12,74.0,100.0,1.76,ID,1595898601
131,ponta do sol,32.67,-17.1,22.0,64.0,20.0,7.2,PT,1595898602
132,sitka,57.05,-135.33,15.0,77.0,40.0,3.1,US,1595898602
133,dikson,73.51,80.55,4.62,82.0,52.0,5.81,RU,1595898603
134,yulara,-25.24,130.99,13.0,43.0,0.0,5.7,AU,1595898603
135,izhmorskiy,56.19,86.64,14.58,86.0,51.0,0.87,RU,1595898604
136,kazuno,40.18,140.79,21.0,94.0,75.0,2.6,JP,1595898604
137,bairiki,1.33,172.98,31.0,74.0,40.0,3.1,KI,1595898604
138,socorro,31.65,-106.3,33.0,26.0,20.0,3.6,US,1595898605
139,tiksi,71.69,128.87,3.96,87.0,100.0,7.82,RU,1595898489
140,marrakesh,31.63,-8.01,27.0,51.0,0.0,2.6,MA,1595898326
141,brigham city,41.51,-112.02,34.0,10.0,1.0,1.5,US,1595898350
143,husavik,66.04,-17.34,9.0,70.0,90.0,5.7,IS,1595898606
144,nishihara,26.18,127.76,31.0,74.0,40.0,6.2,JP,1595898607
145,thompson,55.74,-97.86,16.0,77.0,75.0,4.1,CA,1595898496
146,glace bay,46.2,-59.96,17.22,88.0,75.0,2.6,CA,1595898607
147,baherden,38.44,57.43,31.14,34.0,0.0,2.28,TM,1595898607
148,nauta,-4.51,-73.58,22.56,94.0,0.0,0.47,PE,1595898608
149,suez,29.97,32.53,24.37,70.0,0.0,4.43,EG,1595898608
150,aksarka,66.56,67.8,10.46,72.0,100.0,5.32,RU,1595898608
151,chacaltianguis,18.33,-95.83,28.58,79.0,100.0,1.16,MX,1595898608
152,trujillo,-8.12,-79.03,16.04,83.0,19.0,2.85,PE,1595898609
153,pinsk,52.12,26.1,17.2,90.0,63.0,1.27,BY,1595898609
154,pundaguitan,6.37,126.17,28.53,71.0,80.0,3.37,PH,1595898609
155,iqaluit,63.75,-68.51,14.0,76.0,75.0,1.28,CA,1595898609
156,yueyang,29.33,113.09,26.87,85.0,60.0,0.83,CN,1595898610
157,brae,60.4,-1.35,13.0,93.0,100.0,5.1,GB,1595898610
158,vardo,70.37,31.11,13.0,82.0,0.0,2.6,NO,1595898610
159,norden,53.6,7.2,17.0,82.0,75.0,1.5,DE,1595898611
160,roald,62.58,6.13,16.11,77.0,100.0,3.6,NO,1595898611
161,avarua,-21.21,-159.78,23.0,73.0,3.0,3.1,CK,1595898491
162,oktyabrskoye,43.06,44.74,17.0,93.0,0.0,2.0,RU,1595898611
163,batagay,67.63,134.63,11.71,70.0,100.0,2.64,RU,1595898612
164,bestobe,52.5,73.1,16.6,65.0,60.0,4.26,KZ,1595898612
165,mabaruma,8.2,-59.78,24.21,95.0,2.0,0.95,GY,1595898612
166,tsabong,-26.02,22.4,8.37,49.0,0.0,5.42,BW,1595898613
167,talnakh,69.49,88.4,14.0,47.0,0.0,4.0,RU,1595898613
168,katsuura,35.13,140.3,28.89,88.0,75.0,12.3,JP,1595898613
169,rawson,-43.3,-65.1,5.52,64.0,0.0,7.93,AR,1595898403
170,imbituba,-28.24,-48.67,19.0,88.0,73.0,4.1,BR,1595898317
171,merzifon,40.87,35.46,18.0,72.0,1.0,1.5,TR,1595898614
172,cidreira,-30.18,-50.21,15.83,96.0,90.0,2.91,BR,1595898614
173,atuona,-9.8,-139.03,26.58,69.0,0.0,11.49,PF,1595898615
174,anadyr,64.75,177.48,21.0,64.0,20.0,3.0,RU,1595898615
175,arang,21.2,81.97,28.0,94.0,40.0,2.1,IN,1595898615
176,keti bandar,24.14,67.45,29.54,77.0,12.0,8.65,PK,1595898616
177,aloja,57.77,24.88,16.11,96.0,100.0,0.45,LV,1595898616
178,lagonoy,13.73,123.52,28.99,77.0,100.0,0.81,PH,1595898616
179,prince rupert,54.32,-130.32,15.0,82.0,75.0,5.1,CA,1595898616
180,porto novo,6.5,2.6,24.0,94.0,20.0,5.1,BJ,1595898539
181,kamenka,51.32,42.77,15.0,69.0,0.0,0.89,RU,1595898617
182,akureyri,65.68,-18.09,9.0,70.0,90.0,5.7,IS,1595898617
183,solaro,44.88,9.17,24.44,88.0,0.0,0.65,IT,1595898618
184,kaitangata,-46.28,169.85,8.89,70.0,100.0,3.58,NZ,1595898618
185,lyaskelya,61.77,31.02,11.35,83.0,56.0,1.14,RU,1595898618
186,soe,-9.86,124.28,21.31,67.0,93.0,3.54,ID,1595898618
187,wanning,18.8,110.4,30.25,75.0,0.0,5.07,CN,1595898619
188,machaneng,-23.19,27.49,7.88,93.0,0.0,2.8,BW,1595898619
189,north bend,43.41,-124.22,21.67,82.0,20.0,6.7,US,1595898619
190,leonforte,37.64,14.4,24.44,55.0,0.0,0.89,IT,1595898620
191,bulaevo,54.91,70.44,13.59,83.0,55.0,2.61,KZ,1595898620
192,lebu,-37.62,-73.65,7.32,75.0,0.0,5.56,CL,1595898620
193,ouallam,14.32,2.09,30.72,53.0,94.0,3.59,NE,1595898620
194,general cepeda,25.38,-101.45,19.0,82.0,90.0,5.1,MX,1595898620
195,stepnyak,52.83,70.78,14.78,77.0,100.0,3.81,KZ,1595898621
196,nanakuli,21.39,-158.15,32.0,46.0,20.0,3.1,US,1595898621
197,kamina,-8.74,24.99,14.75,47.0,0.0,1.18,CD,1595898621
198,bodden town,19.28,-81.25,30.0,84.0,20.0,5.1,KY,1595898475
199,bitung,1.45,125.18,29.0,70.0,20.0,1.5,ID,1595898622
200,yerbogachen,61.28,108.01,12.96,91.0,100.0,4.98,RU,1595898622
201,codrington,-38.27,141.97,12.33,75.0,1.0,2.14,AU,1595898622
202,luderitz,-26.65,15.16,13.0,87.0,0.0,0.5,NA,1595898623
203,moindou,-21.69,165.68,27.0,54.0,75.0,2.6,NC,1595898623
204,sorland,67.67,12.69,12.64,90.0,100.0,2.97,NO,1595898476
205,portland,45.52,-122.68,37.0,23.0,75.0,3.6,US,1595898458
206,khammam,17.25,80.15,27.03,84.0,100.0,1.12,IN,1595898624
207,kos,36.89,27.29,26.0,61.0,0.0,7.2,GR,1595898624
208,kavieng,-2.57,150.8,28.89,75.0,52.0,5.03,PG,1595898624
209,mandera,3.94,41.87,26.01,62.0,74.0,8.08,KE,1595898624
210,los llanos de aridane,28.66,-17.92,23.0,73.0,90.0,7.2,ES,1595898625
211,sao filipe,14.9,-24.5,24.44,78.0,100.0,3.9,CV,1595898625
212,frederick,39.47,-77.4,28.89,73.0,23.0,2.87,US,1595898625
213,gao,16.64,1.64,27.08,65.0,100.0,6.6,ML,1595898617
214,mayuge,0.46,33.48,18.75,80.0,90.0,1.46,UG,1595898626
215,nouadhibou,20.93,-17.03,24.0,78.0,0.0,1.5,MR,1595898566
216,chokurdakh,70.63,147.92,8.86,58.0,100.0,1.33,RU,1595898447
217,hami,42.8,93.45,29.44,23.0,70.0,6.19,CN,1595898627
218,pitkyaranta,61.57,31.48,13.71,77.0,49.0,1.82,RU,1595898627
220,ahipara,-35.17,173.17,15.72,65.0,75.0,4.71,NZ,1595898628
221,bambous virieux,-20.34,57.76,19.44,88.0,40.0,1.5,MU,1595898628
222,atambua,-9.11,124.89,25.1,55.0,100.0,1.87,ID,1595898628
223,dicabisagan,17.08,122.42,30.29,67.0,100.0,1.34,PH,1595898628
224,praia da vitoria,38.73,-27.07,23.0,88.0,4.0,1.86,PT,1595898629
225,tefe,-3.35,-64.71,24.6,82.0,0.0,0.64,BR,1595898629
226,mahebourg,-20.41,57.7,19.0,88.0,40.0,1.5,MU,1595898629
227,korhogo,9.45,-5.63,21.18,96.0,100.0,2.04,CI,1595898630
228,bilma,18.69,12.92,31.23,47.0,5.0,5.89,NE,1595898630
229,san patricio,19.22,-104.7,30.0,74.0,40.0,4.1,MX,1595898500
230,santo andre,-23.66,-46.54,21.11,60.0,91.0,1.0,BR,1595898386
231,barra do garcas,-15.89,-52.26,21.45,39.0,0.0,0.51,BR,1595898441
232,port blair,11.67,92.75,28.26,78.0,100.0,4.76,IN,1595898568
233,gornopravdinsk,60.05,69.9,10.64,65.0,21.0,2.11,RU,1595898631
234,matagami,49.75,-77.63,19.0,93.0,90.0,1.2,CA,1595898631
235,sovetskoye,52.29,85.41,17.57,75.0,41.0,1.8,RU,1595898631
236,mildura,-34.2,142.15,11.67,71.0,0.0,4.1,AU,1595898576
237,fukue,32.69,128.84,28.0,94.0,75.0,5.7,JP,1595898632
238,yumen,40.28,97.2,25.82,15.0,5.0,4.46,CN,1595898632
239,seydi,39.48,62.91,26.4,22.0,0.0,4.41,TM,1595898632
240,san juan,-31.54,-68.54,9.35,49.0,6.0,3.62,AR,1595898403
241,margate,51.38,1.39,17.22,91.0,77.0,1.79,GB,1595898444
242,saint andrews,34.05,-81.13,28.89,65.0,75.0,1.5,US,1595898633
243,teluknaga,-6.1,106.64,26.0,78.0,20.0,2.1,ID,1595898633
244,kisangani,0.52,25.2,21.61,92.0,100.0,0.62,CD,1595898634
245,paamiut,61.99,-49.67,8.1,84.0,100.0,0.55,GL,1595898541
246,kurilsk,45.23,147.88,14.59,73.0,98.0,0.27,RU,1595898634
247,manono,-7.3,27.42,18.3,51.0,0.0,1.99,CD,1595898634
248,senneterre,48.38,-77.23,20.0,94.0,75.0,1.5,CA,1595898635
249,adrar,20.5,-10.07,33.92,33.0,0.0,8.72,MR,1595898635
250,bogorodskoye,56.55,37.88,14.89,96.0,0.0,1.91,RU,1595898635
251,mar del plata,-38.0,-57.56,6.11,86.0,75.0,4.1,AR,1595898422
252,birao,10.28,22.79,22.02,95.0,98.0,2.46,CF,1595898636
253,lakatoro,-16.1,167.42,27.0,83.0,75.0,4.1,VU,1595898636
254,micheweni,-4.97,39.83,24.39,80.0,12.0,7.34,TZ,1595898626
255,koumac,-20.57,164.28,24.28,67.0,100.0,2.71,NC,1595898637
256,emborion,40.48,21.55,20.0,52.0,0.0,3.1,GR,1595898637
257,guozhen,34.37,107.36,26.45,64.0,100.0,1.84,CN,1595898637
258,ust-karsk,52.7,118.81,29.57,40.0,59.0,2.82,RU,1595898637
259,kurchum,48.57,83.65,20.08,48.0,46.0,1.56,KZ,1595898638
260,kambove,-10.88,26.6,10.48,64.0,0.0,2.95,CD,1595898638
261,west bay,19.37,-81.42,30.0,84.0,20.0,5.1,KY,1595898639
262,alofi,-19.06,-169.92,26.0,61.0,40.0,7.7,NU,1595898639
263,westport,41.14,-73.36,31.11,69.0,1.0,2.6,US,1595898433
264,sembakung,3.82,117.25,26.54,92.0,100.0,0.85,ID,1595898639
265,upata,8.01,-62.4,26.67,84.0,54.0,0.45,VE,1595898640
266,kahului,20.89,-156.47,32.0,43.0,20.0,13.9,US,1595898640
267,sainthia,23.95,87.67,30.52,71.0,100.0,0.71,IN,1595898640
268,daru,-9.08,143.21,26.09,84.0,73.0,5.95,PG,1595898641
269,vestmannaeyjar,63.44,-20.27,10.41,76.0,0.0,9.27,IS,1595898641
270,vanimo,-2.67,141.3,29.7,61.0,28.0,1.99,PG,1595898641
271,saskylakh,71.92,114.08,11.54,63.0,43.0,5.38,RU,1595898504
272,batangafo,7.3,18.28,20.68,96.0,94.0,1.26,CF,1595898641
273,touros,-5.2,-35.46,22.0,94.0,20.0,1.5,BR,1595898642
274,mocajuba,-2.58,-49.51,23.92,60.0,0.0,1.33,BR,1595898642
275,lorengau,-2.02,147.27,29.66,66.0,98.0,0.75,PG,1595898642
276,peniche,39.36,-9.38,20.0,94.0,19.0,3.13,PT,1595898643
277,asau,46.43,26.4,14.44,91.0,26.0,2.1,RO,1595898643
278,iquitos,-3.75,-73.25,25.0,88.0,40.0,3.1,PE,1595898643
279,kununurra,-15.77,128.73,23.0,20.0,0.0,9.3,AU,1595898538
280,boddam,57.47,-1.78,11.67,87.0,100.0,7.2,GB,1595898643
281,powell river,49.85,-124.54,28.0,45.0,20.0,3.1,CA,1595898088
282,souillac,-20.52,57.52,19.0,88.0,40.0,1.5,MU,1595898604
283,sisimiut,66.94,-53.67,6.98,94.0,100.0,4.65,GL,1595898644
284,sao miguel do tapuio,-5.5,-41.32,22.65,58.0,0.0,2.15,BR,1595898644
285,muros,42.78,-9.06,21.11,85.0,23.0,1.58,ES,1595898644
286,nanortalik,60.14,-45.24,7.59,95.0,100.0,2.03,GL,1595898645
287,bagotville,-28.98,153.42,18.33,48.0,7.0,5.7,AU,1595898645
288,bud,39.45,-86.18,22.78,98.0,100.0,2.96,US,1595898645
289,narsaq,60.92,-46.05,9.0,87.0,75.0,2.1,GL,1595898645
290,fortuna,40.6,-124.16,18.89,71.0,84.0,0.89,US,1595898645
291,vila franca do campo,37.72,-25.43,21.0,94.0,20.0,1.5,PT,1595898646
293,freeport,40.66,-73.58,32.22,52.0,1.0,4.1,US,1595898622
294,calamar,10.25,-74.91,25.71,85.0,3.0,2.53,CO,1595898647
295,illertissen,48.22,10.1,18.89,77.0,0.0,3.68,DE,1595898648
297,tuatapere,-46.13,167.68,7.78,84.0,100.0,0.89,NZ,1595898648
298,kaura namoda,12.59,6.58,24.23,80.0,92.0,3.0,NG,1595898648
299,pisz,53.63,21.81,16.0,93.0,100.0,1.5,PL,1595898649
300,portales,34.19,-103.33,28.0,51.0,90.0,5.1,US,1595898649
301,coquimbo,-29.95,-71.34,12.0,87.0,0.0,1.0,CL,1595898647
302,moa,20.66,-74.94,26.78,83.0,9.0,4.84,CU,1595898650
303,sergeyevka,53.88,67.42,13.07,86.0,25.0,2.15,KZ,1595898581
304,midland,32.0,-102.08,34.0,32.0,40.0,2.6,US,1595898415
305,manado,1.49,124.85,29.0,70.0,20.0,1.5,ID,1595898599
306,takoradi,4.88,-1.76,23.5,88.0,99.0,4.31,GH,1595898651
307,safford,32.83,-109.71,35.0,32.0,1.0,7.2,US,1595898651
308,faanui,-16.48,-151.75,26.15,80.0,100.0,6.45,PF,1595898651
309,saint george,37.1,-113.58,39.0,13.0,1.0,4.6,US,1595898440
310,castro,-24.79,-50.01,14.92,75.0,100.0,1.32,BR,1595898475
312,guerrero negro,27.98,-114.06,21.79,75.0,0.0,9.9,MX,1595898652
314,acari,-15.43,-74.62,15.64,65.0,42.0,1.37,PE,1595898653
315,college,64.86,-147.8,15.0,77.0,90.0,2.1,US,1595898653
316,karaton,-6.34,106.1,25.0,78.0,20.0,2.1,ID,1595898653
317,santiago del estero,-27.8,-64.26,12.78,44.0,0.0,4.62,AR,1595898434
318,uyuni,-20.46,-66.83,2.77,51.0,0.0,3.63,BO,1595898654
319,aklavik,68.22,-135.01,21.0,40.0,75.0,3.6,CA,1595898556
320,ikalamavony,-21.15,46.58,12.11,83.0,10.0,2.16,MG,1595898654
321,bengkulu,-3.8,102.27,25.15,74.0,100.0,2.17,ID,1595898533
322,kapit,2.02,112.93,25.45,91.0,100.0,0.41,MY,1595898655
323,sechura,-5.56,-80.82,17.59,77.0,0.0,6.92,PE,1595898655
325,kihei,20.79,-156.47,32.0,43.0,20.0,13.9,US,1595898656
326,kulhudhuffushi,6.62,73.07,27.69,79.0,100.0,5.53,MV,1595898656
327,walvis bay,-22.96,14.51,18.0,31.0,0.0,2.1,NA,1595898583
328,bandarbeyla,9.49,50.81,26.2,72.0,0.0,9.75,SO,1595898657
329,bilibino,68.05,166.44,13.31,44.0,72.0,3.09,RU,1595898657
330,araouane,18.9,-3.53,31.91,48.0,100.0,7.08,ML,1595898498
331,toora-khem,52.47,96.11,14.78,61.0,100.0,0.3,RU,1595898657
332,hastings,50.86,0.57,16.67,88.0,11.0,0.89,GB,1595898505
333,turtas,58.94,69.13,9.21,78.0,62.0,2.63,RU,1595898658
334,emba,48.83,58.14,15.76,77.0,0.0,5.57,KZ,1595898658
335,mecca,21.43,39.83,29.11,64.0,52.0,5.91,SA,1595898427
336,boyolangu,-8.12,111.89,24.64,74.0,50.0,4.31,ID,1595898658
337,panguna,-6.32,155.48,28.37,61.0,23.0,1.34,PG,1595898659
338,half moon bay,37.46,-122.43,23.33,87.0,90.0,2.6,US,1595898659
339,sinnamary,5.38,-52.95,26.08,80.0,98.0,0.5,GF,1595898659
340,nome,64.5,-165.41,11.0,87.0,90.0,7.7,US,1595898464
341,kenai,60.55,-151.26,19.0,72.0,20.0,7.7,US,1595898659
342,andenes,69.31,16.12,15.0,82.0,10.0,7.2,NO,1595898660
343,ewa beach,21.32,-158.01,32.0,46.0,20.0,3.1,US,1595898574
344,piterka,50.68,47.45,16.85,64.0,48.0,2.25,RU,1595898660
345,novaya lyalya,59.05,60.6,13.25,67.0,96.0,1.54,RU,1595898660
346,kawalu,-7.38,108.21,23.23,83.0,100.0,1.46,ID,1595898661
347,bubaque,11.28,-15.83,26.5,84.0,100.0,7.67,GW,1595898661
348,tessalit,20.2,1.01,29.43,47.0,36.0,2.4,ML,1595898661
349,suntar,62.14,117.63,14.66,61.0,100.0,4.47,RU,1595898661
350,toowoomba,-27.55,151.97,13.0,66.0,2.0,4.6,AU,1595898662
351,atar,20.52,-13.05,33.65,36.0,1.0,4.31,MR,1595898662
352,boden,65.83,21.69,14.0,93.0,100.0,1.39,SE,1595898662
353,lubango,-14.92,13.49,11.72,54.0,0.0,1.91,AO,1595898662
354,yelizavetinskaya,45.04,38.8,22.78,87.0,17.0,1.37,RU,1595898663
355,san rafael,-34.62,-68.33,7.15,57.0,0.0,2.01,AR,1595898663
356,cabo san lucas,22.89,-109.91,32.0,69.0,75.0,7.7,MX,1595898608
357,fort nelson,58.81,-122.7,17.0,67.0,75.0,1.5,CA,1595898663
358,verkhnyaya inta,65.98,60.31,11.33,72.0,0.0,3.3,RU,1595898663
359,azare,11.68,10.19,24.76,76.0,87.0,1.36,NG,1595898664
360,morehead,37.27,-87.18,28.0,74.0,1.0,3.1,US,1595898664
361,abu samrah,35.3,37.18,25.89,49.0,0.0,1.64,SY,1595898664
362,vieques,18.43,-65.83,29.0,74.0,40.0,5.1,PR,1595898664
363,port hardy,50.7,-127.42,19.0,72.0,20.0,7.2,CA,1595898665
364,khudumelapye,-23.88,24.75,6.6,64.0,0.0,4.03,BW,1595898665
365,lohardaga,23.43,84.68,25.0,94.0,75.0,1.57,IN,1595898665
366,longyearbyen,78.22,15.64,17.0,55.0,99.0,4.6,SJ,1595898665
367,huarmey,-10.07,-78.15,15.36,85.0,74.0,3.71,PE,1595898666
368,humboldt,40.67,-123.92,18.89,36.0,100.0,0.45,US,1595898666
369,isangel,-19.55,169.27,28.0,69.0,40.0,4.1,VU,1595898589
370,palmerston,-12.49,130.98,25.0,27.0,73.0,6.2,AU,1595898666
372,powell,40.16,-83.08,23.33,94.0,75.0,3.1,US,1595898514
373,coracora,-15.03,-73.78,7.43,51.0,0.0,0.94,PE,1595898667
374,santa cruz de tenerife,28.47,-16.25,21.11,93.0,75.0,9.8,ES,1595898595
375,platteville,42.73,-90.48,25.0,69.0,1.0,2.1,US,1595898493
376,binabalian,16.42,119.93,28.79,73.0,100.0,2.8,PH,1595898668
377,olafsvik,64.89,-23.71,8.89,75.0,50.0,3.09,IS,1595898668
378,dauphin,51.15,-100.05,26.0,39.0,40.0,5.1,CA,1595898668
379,omboue,-1.57,9.26,23.28,84.0,97.0,3.07,GA,1595898577
380,sola,-13.88,167.55,29.0,83.0,90.0,4.1,VU,1595898669
381,kajaani,64.23,27.73,14.0,82.0,100.0,2.6,FI,1595898669
382,pisco,-13.7,-76.22,16.0,82.0,20.0,5.7,PE,1595898669
383,pitimbu,-7.47,-34.81,23.0,94.0,75.0,2.1,BR,1595898669
384,seybaplaya,19.65,-90.67,33.0,49.0,75.0,4.1,MX,1595898670
385,olive branch,34.96,-89.83,30.56,70.0,75.0,2.6,US,1595898670
386,naze,28.37,129.48,31.0,79.0,20.0,5.1,JP,1595898670
387,mandan,46.83,-100.89,29.0,47.0,1.0,4.6,US,1595898670
388,inhambane,-23.86,35.38,17.82,74.0,65.0,4.9,MZ,1595898671
389,aksay,47.26,39.87,24.0,41.0,20.0,6.0,RU,1595898671
390,sarti,40.1,23.98,25.59,65.0,0.0,2.61,GR,1595898671
391,salamiyah,35.01,37.05,25.2,53.0,0.0,2.09,SY,1595898671
392,troitsk,54.1,61.58,11.67,88.0,0.0,3.81,RU,1595898672
393,huangmei,30.19,116.03,24.11,95.0,100.0,2.21,CN,1595898672
394,tamarindo,22.12,-78.91,25.06,87.0,0.0,3.59,CU,1595898672
395,bathsheba,13.22,-59.52,28.0,78.0,20.0,6.7,BB,1595898673
396,laguna,38.42,-121.42,34.44,24.0,1.0,4.6,US,1595898673
397,benguela,-12.58,13.41,18.93,85.0,0.0,0.86,AO,1595898673
398,kloulklubed,7.04,134.26,29.0,74.0,75.0,3.6,PW,1595898674
399,alexandria,31.22,29.96,26.0,78.0,40.0,3.6,EG,1595898511
400,mago,53.25,140.18,24.88,52.0,100.0,1.52,RU,1595898674
401,santander,43.46,-3.8,21.67,88.0,100.0,2.36,ES,1595898552
402,beinamar,8.67,15.38,21.52,96.0,74.0,1.73,TD,1595898675
403,avera,33.19,-82.53,31.0,62.0,40.0,3.72,US,1595898448
404,pangnirtung,66.15,-65.71,15.22,48.0,100.0,3.68,CA,1595898675
405,troitskoye,52.98,84.68,17.15,72.0,92.0,2.48,RU,1595898675
406,lata,40.16,-8.33,20.56,99.0,100.0,0.89,PT,1595898675
407,maumere,-8.62,122.21,25.74,65.0,92.0,3.79,ID,1595898676
408,menongue,-14.66,17.69,8.4,55.0,0.0,1.78,AO,1595898676
409,lake havasu city,34.48,-114.32,44.0,9.0,1.0,4.1,US,1595898604
411,mongo,12.18,18.69,25.07,73.0,100.0,2.4,TD,1595898677
412,egvekinot,66.32,-179.17,10.56,71.0,100.0,2.66,RU,1595898678
413,lucea,18.45,-78.17,30.0,74.0,20.0,4.6,JM,1595898660
414,puerto del rosario,28.5,-13.86,23.0,83.0,0.0,7.7,ES,1595898678
415,port hedland,-20.32,118.57,23.0,16.0,92.0,6.7,AU,1595898678
416,shivrajpur,22.42,73.65,28.0,88.0,40.0,1.5,IN,1595898679
417,sawtell,-30.38,153.1,19.44,52.0,0.0,2.6,AU,1595898679
418,opuwo,-18.06,13.84,12.5,41.0,0.0,3.32,NA,1595898576
419,chauk,20.88,94.82,26.82,84.0,100.0,3.23,MM,1595898679
420,leningradskiy,69.38,178.42,3.38,76.0,22.0,6.0,RU,1595898680
421,buraydah,26.33,43.98,34.0,38.0,20.0,1.5,SA,1595898680
422,te anau,-45.42,167.72,8.49,74.0,100.0,0.46,NZ,1595898680
423,morshansk,53.44,41.81,14.62,84.0,0.0,0.83,RU,1595898680
424,madinat sittah uktubar,29.82,31.05,25.0,78.0,0.0,4.1,EG,1595898680
425,jaen,38.0,-3.5,23.82,41.0,0.0,2.45,ES,1595898681
427,sao lourenco do sul,-31.37,-51.98,11.11,95.0,100.0,1.17,BR,1595898681
429,ostrovnoy,68.05,39.51,13.17,86.0,20.0,0.52,RU,1595898682
430,kuah,6.33,99.84,26.0,94.0,40.0,3.6,MY,1595898682
431,pangoa,-12.12,-73.0,20.34,84.0,26.0,0.95,PE,1595898682
432,galesong,-5.32,119.37,26.0,88.0,20.0,1.0,ID,1595898682
433,ponta delgada,37.73,-25.67,21.0,94.0,20.0,1.5,PT,1595898465
434,waingapu,-9.66,120.26,25.74,59.0,48.0,6.16,ID,1595898683
435,puro,12.48,123.38,27.49,82.0,100.0,3.76,PH,1595898684
436,belmonte,-15.86,-38.88,22.0,78.0,20.0,1.0,BR,1595898468
437,yilan,24.76,121.75,32.0,70.0,75.0,1.0,TW,1595898684
438,mackenzie,55.3,-123.17,24.85,39.0,100.0,2.92,CA,1595898684
439,bunia,1.57,30.25,16.19,90.0,0.0,0.95,CD,1595898685
440,monticello,45.31,-93.79,27.0,50.0,1.0,4.14,US,1595898685
441,verkhoyansk,67.54,133.38,13.26,64.0,98.0,2.93,RU,1595898685
443,bose,45.46,8.01,22.78,78.0,0.0,2.68,IT,1595898685
444,labuhan,-6.88,112.21,25.66,73.0,96.0,5.08,ID,1595898686
445,biak,-0.91,122.88,26.26,76.0,100.0,3.84,ID,1595898686
446,burnie,-41.07,145.92,11.09,52.0,0.0,1.95,AU,1595898686
447,honningsvag,70.98,25.97,15.34,68.0,0.0,5.78,NO,1595898686
448,tekeli,44.83,78.82,17.68,44.0,15.0,4.15,KZ,1595898686
449,henties bay,-22.12,14.28,15.56,86.0,0.0,3.11,NA,1595898687
450,semey,50.41,80.23,16.0,93.0,40.0,3.0,KZ,1595898687
451,airai,-8.93,125.41,18.42,60.0,100.0,1.84,TL,1595898687
452,nizwa,22.93,57.53,27.39,63.0,3.0,0.9,OM,1595898687
453,tateyama,34.98,139.87,28.0,94.0,75.0,7.2,JP,1595898687
454,humberto de campos,-2.6,-43.46,24.48,80.0,0.0,2.91,BR,1595898688
455,pawayan,28.07,80.1,29.13,76.0,57.0,2.61,IN,1595898688
456,vaghodia,22.3,73.38,28.0,88.0,40.0,1.5,IN,1595898688
457,zaqatala,41.63,46.64,26.0,65.0,40.0,4.1,AZ,1595898688
458,bondoukou,8.03,-2.8,20.36,95.0,97.0,2.47,CI,1595898689
459,iralaya,15.0,-83.23,27.0,88.0,75.0,3.1,HN,1595898689
460,cartagena,10.4,-75.51,27.2,84.0,21.0,5.16,CO,1595898546
461,kathu,7.92,98.33,28.89,94.0,20.0,0.12,TH,1595898689
462,buchanan,5.88,-10.05,24.0,94.0,75.0,1.5,LR,1595898690
463,lodwar,3.12,35.6,27.81,52.0,100.0,2.15,KE,1595898690
464,dong hoi,17.48,106.6,31.14,60.0,55.0,1.49,VN,1595898690
465,catuday,16.29,119.81,28.63,70.0,100.0,1.91,PH,1595898690
466,acarau,-2.89,-40.12,25.15,79.0,0.0,6.13,BR,1595898691
467,itoman,26.12,127.67,31.0,70.0,40.0,6.7,JP,1595898691
468,meulaboh,4.14,96.13,23.89,93.0,100.0,1.32,ID,1595898691
469,grahamstown,-33.3,26.53,7.02,78.0,0.0,2.56,ZA,1595898692
470,sile,41.18,29.61,22.78,78.0,0.0,1.71,TR,1595898692
471,tanout,14.97,8.89,29.69,45.0,93.0,5.93,NE,1595898692
472,hit,33.64,42.83,35.58,13.0,0.0,2.99,IQ,1595898693
473,zhangjiakou,40.81,114.88,20.89,75.0,100.0,2.79,CN,1595898693
474,rocha,-34.48,-54.33,8.2,72.0,100.0,4.36,UY,1595898693
475,muana,-1.53,-49.22,24.46,78.0,0.0,1.68,BR,1595898694
476,hofn,64.25,-15.21,11.13,68.0,100.0,3.71,IS,1595898694
477,dali,25.7,100.18,20.56,61.0,98.0,0.71,CN,1595898694
478,tigil,57.8,158.67,20.06,54.0,0.0,4.93,RU,1595898695
479,mpika,-11.83,31.45,11.48,79.0,0.0,4.29,ZM,1595898695
480,naberera,-4.2,36.93,13.27,95.0,82.0,3.5,TZ,1595898695
481,itarema,-2.92,-39.92,25.25,79.0,0.0,5.94,BR,1595898695
482,russell,32.35,-85.2,31.0,74.0,1.0,1.28,US,1595898695
483,vao,-22.67,167.48,21.86,82.0,92.0,9.89,NC,1595898696
484,koungou,-12.73,45.2,21.0,88.0,90.0,8.7,YT,1595898696
485,havoysund,71.0,24.66,18.0,63.0,0.0,8.7,NO,1595898696
486,zeya,53.75,127.27,27.29,61.0,0.0,2.87,RU,1595898697
487,namatanai,-3.67,152.43,29.68,66.0,8.0,2.88,PG,1595898697
488,taoudenni,22.68,-3.98,36.04,9.0,0.0,5.43,ML,1595898697
489,lubao,14.92,120.55,28.0,78.0,75.0,1.5,PH,1595898697
490,cabra,37.47,-4.44,27.0,50.0,0.0,2.1,ES,1595898697
491,bulgan,48.81,103.53,17.42,68.0,0.0,1.23,MN,1595898698
492,dingle,11.0,122.67,27.39,83.0,100.0,1.75,PH,1595898698
493,la romana,18.43,-68.97,26.0,94.0,40.0,5.09,DO,1595898698
494,asyut,27.18,31.18,25.0,41.0,65.0,3.6,EG,1595898698
495,byron bay,-28.65,153.62,18.0,48.0,11.0,5.7,AU,1595898577
496,nisia floresta,-6.09,-35.21,23.0,88.0,40.0,2.6,BR,1595898699
497,weihe,33.0,105.32,22.93,77.0,100.0,0.34,CN,1595898699
498,ekhabi,53.51,142.97,20.84,68.0,20.0,2.18,RU,1595898699
499,finschhafen,-6.6,147.87,28.83,69.0,1.0,3.82,PG,1595898699
500,hualmay,-11.1,-77.61,15.45,84.0,67.0,4.04,PE,1595898490
502,north port,27.04,-82.24,30.0,79.0,1.0,2.3,US,1595898700
503,chicama,-7.84,-79.15,15.67,83.0,16.0,2.32,PE,1595898700
504,honiara,-9.43,159.95,31.0,70.0,40.0,5.1,SB,1595898700
505,burns lake,54.23,-125.75,23.0,38.0,100.0,4.86,CA,1595898701
506,mount gambier,-37.83,140.77,9.0,93.0,3.0,0.5,AU,1595898701
507,sambava,-14.27,50.17,22.49,81.0,100.0,5.69,MG,1595898701
508,cherskiy,68.75,161.3,9.48,49.0,52.0,4.46,RU,1595898540
509,boa vista,2.82,-60.67,28.0,74.0,67.0,0.5,BR,1595898702
510,kalangala,-0.31,32.23,21.0,88.0,20.0,1.5,UG,1595898702
511,yar-sale,66.83,70.83,11.14,65.0,93.0,6.27,RU,1595898702
512,vila velha,-20.33,-40.29,20.0,88.0,0.0,1.5,BR,1595898528
513,khani,41.96,42.96,24.0,94.0,75.0,1.5,GE,1595898703
514,aleksandrovskiy zavod,50.92,117.94,22.57,63.0,88.0,5.71,RU,1595898703
515,zyryanka,65.75,150.85,21.82,55.0,2.0,4.61,RU,1595898703
516,katobu,-4.94,122.53,27.37,66.0,98.0,2.98,ID,1595898704
517,xichang,27.9,102.26,21.44,67.0,98.0,0.64,CN,1595898704
518,mitsamiouli,-11.38,43.28,23.47,74.0,52.0,5.0,KM,1595898704
519,hamilton,39.18,-84.53,22.0,94.0,1.0,4.14,US,1595898704
520,hukuntsi,-24.0,21.75,8.12,51.0,0.0,5.8,BW,1595898705
521,awbari,26.59,12.78,26.23,27.0,0.0,4.05,LY,1595898705
522,sioux lookout,50.1,-91.92,18.0,82.0,75.0,2.6,CA,1595898705
523,jalu,29.03,21.55,24.96,50.0,0.0,4.8,LY,1595898572
524,tshikapa,-6.42,20.8,18.78,39.0,0.0,0.47,CD,1595898706
525,puerto escondido,15.85,-97.07,27.0,69.0,90.0,1.5,MX,1595898706
526,shubarshi,48.59,57.19,16.43,71.0,0.0,4.08,KZ,1595898706
527,pevek,69.7,170.31,1.83,86.0,0.0,4.8,RU,1595898706
528,severnyy,50.68,36.55,18.0,52.0,100.0,4.0,RU,1595898707
529,ust-kuyga,70.02,135.6,9.69,62.0,99.0,2.47,RU,1595898707
530,sembe,1.65,14.58,20.71,88.0,0.0,1.04,CG,1595898707
531,saint-francois,46.42,3.91,22.0,60.0,0.0,0.5,FR,1595898708
532,mealhada,40.38,-8.45,20.56,87.0,99.0,0.89,PT,1595898708
533,waddan,29.16,16.14,21.17,74.0,0.0,1.87,LY,1595898708
534,alice springs,-23.7,133.88,13.0,50.0,0.0,3.1,AU,1595898660
535,novo aripuana,-5.12,-60.38,26.3,54.0,38.0,0.59,BR,1595898708
538,gympie,-26.19,152.66,17.78,52.0,0.0,0.89,AU,1595898573
539,new albany,38.29,-85.82,27.22,74.0,75.0,2.1,US,1595898709
540,annau,37.89,58.52,31.0,35.0,0.0,7.2,TM,1595898710
541,loa janan,-0.58,117.09,27.31,82.0,44.0,1.73,ID,1595898710
542,ileza,61.05,43.9,12.82,93.0,0.0,0.66,RU,1595898710
543,koshurnikovo,54.17,93.3,13.48,91.0,100.0,0.76,RU,1595898710
544,ugoofaaru,5.67,73.0,27.54,77.0,61.0,4.5,MV,1595898711
545,qui nhon,13.77,109.23,29.92,63.0,99.0,1.34,VN,1595898711
546,umm lajj,25.02,37.27,29.21,81.0,84.0,0.52,SA,1595898711
547,waynesboro,38.07,-78.89,27.78,61.0,1.0,3.1,US,1595898711
548,rio gallegos,-51.62,-69.22,1.0,74.0,26.0,5.1,AR,1595898522
549,sunrise manor,36.21,-115.07,42.0,9.0,1.0,4.6,US,1595898713
550,sumenep,-7.02,113.87,27.6,64.0,15.0,5.63,ID,1595898713
551,stokmarknes,68.56,14.91,14.44,87.0,0.0,1.55,NO,1595898713
552,sabang,5.89,95.32,27.58,78.0,100.0,10.23,ID,1595898600
553,katherine,-14.47,132.27,23.0,18.0,12.0,8.2,AU,1595898714
555,luwuk,-0.95,122.79,27.02,72.0,100.0,3.23,ID,1595898714
556,can tho,10.03,105.78,28.44,79.0,79.0,2.51,VN,1595898715
557,challans,46.84,-1.87,18.0,88.0,90.0,3.6,FR,1595898715
558,hays,30.05,-98.03,31.67,66.0,100.0,1.79,US,1595898715
559,tazovskiy,67.47,78.7,10.17,67.0,86.0,5.6,RU,1595898715
561,gornozavodsk,58.38,58.32,11.7,86.0,34.0,0.04,RU,1595898716
562,ambulu,-8.35,113.61,25.06,73.0,92.0,0.69,ID,1595898716
563,port-gentil,-0.72,8.78,23.68,83.0,0.0,5.85,GA,1595898716
564,zhaoyuan,37.36,120.4,25.21,72.0,0.0,3.33,CN,1595898716
565,catalina foothills,32.3,-110.92,34.44,36.0,90.0,6.2,US,1595898716
566,antofagasta,-23.65,-70.4,13.0,82.0,75.0,3.1,CL,1595898717
567,tubuala,9.52,-79.03,25.0,94.0,75.0,1.5,PA,1595898717
568,beitbridge,-22.22,30.0,13.34,86.0,93.0,6.27,ZW,1595898521
569,zhigansk,66.77,123.37,11.2,69.0,34.0,6.86,RU,1595898717
570,laredo,27.51,-99.51,26.0,88.0,90.0,5.7,US,1595898537
571,vagur,61.47,-6.81,9.87,87.0,79.0,7.92,FO,1595898718
572,kedrovyy,56.17,91.82,16.0,87.0,0.0,1.0,RU,1595898718
573,am timan,11.03,20.28,23.46,93.0,100.0,2.49,TD,1595898718
574,mumford,5.26,-0.76,23.66,88.0,100.0,5.31,GH,1595898719
575,novaya igirma,57.13,103.91,17.15,83.0,93.0,2.38,RU,1595898615
576,christchurch,-43.53,172.63,8.33,93.0,100.0,5.1,NZ,1595898645
577,kaduqli,11.02,29.72,22.82,92.0,100.0,3.21,SD,1595898719
578,krasnoselkup,65.7,82.47,10.97,71.0,94.0,6.25,RU,1595898719
579,wote,-1.78,37.63,15.25,88.0,10.0,0.38,KE,1595898720
580,luanda,-8.84,13.23,21.0,94.0,99.0,1.5,AO,1595898720
581,dingwall,57.6,-4.43,12.0,87.0,100.0,7.2,GB,1595898720
582,kibala,9.11,18.35,25.0,94.0,73.0,1.16,TD,1595898720
583,usinsk,65.99,57.53,11.34,76.0,93.0,5.45,RU,1595898721
